Name,Year,Latitude,Longitude,City,Country,Cuisine,Price,URL
Ikarus,2019,47.79536,13.00695,Salzburg,Austria,Innovative,$$$$$,https://guide.michelin.com/at/en/salzburg-region/salzburg/restaurant/ikarus
SENNS.Restaurant,2019,47.83636,13.06389,Salzburg,Austria,Innovative,$$$$$,https://guide.michelin.com/at/en/salzburg-region/salzburg/restaurant/senns-restaurant
Konstantin Filippou,2019,48.21056,16.37996,Vienna,Austria,Modern,$$$$$,https://guide.michelin.com/at/en/vienna/wien/restaurant/konstantin-filippou
Mraz & Sohn,2019,48.23129,16.37637,Vienna,Austria,Innovative,$$$$$,https://guide.michelin.com/at/en/vienna/wien/restaurant/mraz-sohn
Silvio Nickol Gourmet Restaurant,2019,48.20558,16.37693,Vienna,Austria,Modern,$$$$$,https://guide.michelin.com/at/en/vienna/wien/restaurant/silvio-nickol-gourmet-restaurant
Steirereck im Stadtpark,2019,48.20229,16.3805,Vienna,Austria,Innovative,$$$$$,https://guide.michelin.com/at/en/vienna/wien/restaurant/steirereck-im-stadtpark
Oro,2019,-22.98601,-43.22471,Rio de Janeiro,Brazil,Innovative,$$$$$,https://guide.michelin.com/br/en/rio-de-janeiro-region/rio-de-janeiro/restaurant/oro
D.O.M.,2019,-23.56618,-46.66742,Sao Paulo,Brazil,Innovative,$$$$$,https://guide.michelin.com/br/en/sao-paulo-region/sao-paulo/restaurant/d-o-m
Tuju,2019,-23.55653,-46.69083,Sao Paulo,Brazil,Innovative,$$$$$,https://guide.michelin.com/br/en/sao-paulo-region/sao-paulo/restaurant/tuju
a|o|c,2019,55.68305,12.58921,Copenhagen,Denmark,Modern,$$$$,https://guide.michelin.com/dk/en/capital-region/kobenhavn/restaurant/a%E2%80%9Ao%E2%80%9Ac
Kadeau Copenhagen,2019,55.67219,12.58848,Copenhagen,Denmark,Modern,$$$$,https://guide.michelin.com/dk/en/capital-region/kobenhavn/restaurant/kadeau-copenhagen
noma,2019,55.68332,12.61006,Copenhagen,Denmark,Innovative,$$$$,https://guide.michelin.com/dk/en/capital-region/kobenhavn/restaurant/noma
Henne Kirkeby Kro,2019,55.72682,8.242021,Henne,Denmark,Traditional,$$$,https://guide.michelin.com/dk/en/southern-denmark/henne/restaurant/henne-kirkeby-kro
KOKS,2019,62.13667,-7.022025,Leynar,Denmark,Innovative,$$$$,https://guide.michelin.com/dk/en/faroe-islands/leynar/restaurant/koks558780
Spondi,2019,37.96525,23.742971,Athens,Greece,French,$$$$$,https://guide.michelin.com/gr/en/attica/athina/restaurant/spondi
Amber,2019,22.280596,114.15764,Hong Kong,Hong Kong,French,$$$$,https://guide.michelin.com/hk/en/hong-kong-region/hong-kong/restaurant/amber569032
Écriture,2019,22.28315,114.1554,Hong Kong,Hong Kong,French,$$$,https://guide.michelin.com/hk/en/hong-kong-region/hong-kong/restaurant/ecriture
Forum,2019,22.281616,114.1824,Hong Kong,Hong Kong,Chinese,$$,https://guide.michelin.com/hk/en/hong-kong-region/hong-kong/restaurant/forum
Kashiwaya,2019,22.280643,114.15674,Hong Kong,Hong Kong,Japanese,$$$$,https://guide.michelin.com/hk/en/hong-kong-region/hong-kong/restaurant/kashiwaya
Pierre,2019,22.282127,114.15948,Hong Kong,Hong Kong,French,$$$$,https://guide.michelin.com/hk/en/hong-kong-region/hong-kong/restaurant/pierre
Sun Tung Lok,2019,22.30099,114.17221,Hong Kong,Hong Kong,Chinese,$$,https://guide.michelin.com/hk/en/hong-kong-region/hong-kong/restaurant/sun-tung-lok
Sushi Saito,2019,22.286467,114.15677,Hong Kong,Hong Kong,Japanese,$$$$$,https://guide.michelin.com/hk/en/hong-kong-region/hong-kong/restaurant/sushi-saito
Ta Vie,2019,22.282766,114.15529,Hong Kong,Hong Kong,Innovative,$$$$$,https://guide.michelin.com/hk/en/hong-kong-region/hong-kong/restaurant/ta-vie
Tenku RyuGin,2019,22.30331,114.16021,Hong Kong,Hong Kong,Japanese,$$$$$,https://guide.michelin.com/hk/en/hong-kong-region/hong-kong/restaurant/tenku-ryugin
Tin Lung Heen,2019,22.30357,114.16007,Hong Kong,Hong Kong,Chinese,$$$,https://guide.michelin.com/hk/en/hong-kong-region/hong-kong/restaurant/tin-lung-heen
Yan Toh Heen,2019,22.293337,114.17395,Hong Kong,Hong Kong,Chinese,$$$,https://guide.michelin.com/hk/en/hong-kong-region/hong-kong/restaurant/yan-toh-heen
Ying Jee Club,2019,22.284338,114.156654,Hong Kong,Hong Kong,Chinese,$$,https://guide.michelin.com/hk/en/hong-kong-region/hong-kong/restaurant/ying-jee-club
Onyx,2019,47.49712,19.05067,Budapest,Hungary,Modern,$$$$$,https://guide.michelin.com/hu/en/central-hungary/budapest/restaurant/onyx
Patrick Guilbaud,2019,53.33893,-6.25283,Dublin,Ireland,Modern,$$$$,https://guide.michelin.com/ie/en/dublin/city-centre/restaurant/patrick-guilbaud
Alain Ducasse at Morpheus,2019,22.14293,113.563774,Macau,Macau,French,$$$$$,https://guide.michelin.com/mo/en/macau-region/macau/restaurant/alain-ducasse-at-morpheus
Feng Wei Ju,2019,22.18996,113.54794,Macau,Macau,Chinese,$,https://guide.michelin.com/mo/en/macau-region/macau/restaurant/feng-wei-ju
Golden Flower,2019,22.18753,113.54806,Macau,Macau,Chinese,$$,https://guide.michelin.com/mo/en/macau-region/macau/restaurant/golden-flower
Mizumi (Macau),2019,22.188755,113.54488,Macau,Macau,Japanese,$$,https://guide.michelin.com/mo/en/macau-region/macau/restaurant/mizumi-macau
The Tasting Room,2019,22.14958,113.56505,Macau,Macau,French,$$$,https://guide.michelin.com/mo/en/macau-region/macau/restaurant/the-tasting-room
Les Amis,2018,1.3066648,103.8314,Singapore,Singapore,French,$$$,https://guide.michelin.com/sg/en/singapore-region/singapore/restaurant/les-amis
Odette,2018,1.2896459,103.8516,Singapore,Singapore,French,$$$$,https://guide.michelin.com/sg/en/singapore-region/singapore/restaurant/odette
Shisen Hanten,2018,1.302395,103.8365,Singapore,Singapore,Chinese,$,https://guide.michelin.com/sg/en/singapore-region/singapore/restaurant/shisen-hanten
Shoukouwa,2018,1.2863698,103.854,Singapore,Singapore,Japanese,$$$$$,https://guide.michelin.com/sg/en/singapore-region/singapore/restaurant/shoukouwa
Waku Ghin,2018,1.283175,103.8598,Singapore,Singapore,Japanese,$$$$$,https://guide.michelin.com/sg/en/singapore-region/singapore/restaurant/waku-ghin
Alla Prima,2019,37.51844,127.03008,Seoul,South Korea,Innovative,$$$,https://guide.michelin.com/kr/en/seoul-capital-area/kr-seoul/restaurant/alla-prima
Jungsik,2019,37.525585,127.04107,Seoul,South Korea,Korean,$$$,https://guide.michelin.com/kr/en/seoul-capital-area/kr-seoul/restaurant/jungsik511965
Kojima,2019,37.52559,127.04193,Seoul,South Korea,Japanese,$$$$$,https://guide.michelin.com/kr/en/seoul-capital-area/kr-seoul/restaurant/kojima
Kwonsooksoo,2019,37.526752,127.03571,Seoul,South Korea,Korean,$$$,https://guide.michelin.com/kr/en/seoul-capital-area/kr-seoul/restaurant/kwonsooksoo
Mingles,2019,37.52219,127.0392,Seoul,South Korea,Korean,$$$,https://guide.michelin.com/kr/en/seoul-capital-area/kr-seoul/restaurant/mingles
Fäviken Magasine,2019,63.43626,13.29337,Järpen,Sweden,Innovative,$$$$,https://guide.michelin.com/se/en/jamtland/jarpen/restaurant/faviken-magasinet
Vollmers,2019,55.604427,12.995848,Malmö ,Sweden,Innovative,$$$$,https://guide.michelin.com/se/en/skane/malmo/restaurant/vollmers
Daniel Berlin,2019,55.61246,13.99265,Skåne Tranås,Sweden,Innovative,$$$$,https://guide.michelin.com/se/en/skane/skane-tranas/restaurant/daniel-berlin
Gastrologik,2019,59.33365,18.0807,Stockholm,Sweden,Innovative,$$$$,https://guide.michelin.com/se/en/stockholm-region/stockholm/restaurant/gastrologik
Oaxen Krog,2019,59.322342,18.101831,Stockholm,Sweden,Innovative,$$$$,https://guide.michelin.com/se/en/stockholm-region/stockholm/restaurant/oaxen-krog
RAW,2019,25.082666,121.559525,Taipei,Taiwan,Innovative,$$$,https://guide.michelin.com/tw/en/taipei-region/taipei/restaurant/raw
Shoun RyuGin,2019,25.08258,121.5595,Taipei,Taiwan,Japanese,$$$$,https://guide.michelin.com/tw/en/taipei-region/taipei/restaurant/shoun-ryugin
Sushi Amamoto,2019,25.037945,121.55487,Taipei,Taiwan,Japanese,$$$$,https://guide.michelin.com/tw/en/taipei-region/taipei/restaurant/sushi-amamoto
Taïrroir,2019,25.082718,121.559296,Taipei,Taiwan,Innovative,$$$,https://guide.michelin.com/tw/en/taipei-region/taipei/restaurant/tairroir
The Guest House,2019,25.04486,121.52198,Taipei,Taiwan,Chinese,$$,https://guide.michelin.com/tw/en/taipei-region/taipei/restaurant/the-guest-house
Gaggan,2019,13.737679,100.542145,Bangkok,Thailand,Innovative,$$$$$,https://guide.michelin.com/th/en/bangkok-region/bangkok/restaurant/gaggan
Le Normandie,2019,13.723197,100.513855,Bangkok,Thailand,French,$$$$,https://guide.michelin.com/th/en/bangkok-region/bangkok/restaurant/le-normandie
Mezzaluna,2019,13.722148,100.51691,Bangkok,Thailand,Innovative,$$$$$,https://guide.michelin.com/th/en/bangkok-region/bangkok/restaurant/mezzaluna
Sühring,2019,13.710947,100.545654,Bangkok,Thailand,Western,$$$$,https://guide.michelin.com/th/en/bangkok-region/bangkok/restaurant/suhring
Andrew Fairlie at Gleneagles,2019,56.28339,-3.75149,Auchterarder,United Kingdom,French,$$$$,https://guide.michelin.com/gb/en/perth-and-kinross/auchterarder/restaurant/andrew-fairlie-at-gleneagles
Moor Hall,2019,53.54162,-2.8895495,Aughton,United Kingdom,Modern,$$$$,https://guide.michelin.com/gb/en/lancashire/aughton/restaurant/moor-hall
Kitchen Table at Bubbledogs,2019,51.52041,-0.13647,Bloomsbury,United Kingdom,Modern,$$$$,https://guide.michelin.com/gb/en/greater-london/bloomsbury/restaurant/kitchen-table-at-bubbledogs
Midsummer House,2019,52.21243,0.12779,Cambridge,United Kingdom,Modern,$$$$,https://guide.michelin.com/gb/en/cambridgeshire/cambridge/restaurant/midsummer-house
L'Enclume,2019,54.201885,-2.953807,Cartmel,United Kingdom,Innovative,$$$$,https://guide.michelin.com/gb/en/cumbria/cartmel/restaurant/l-enclume
Claude Bosi at Bibendum,2019,51.49341,-0.1690893,Chelsea,United Kingdom,French,$$$$,https://guide.michelin.com/gb/en/greater-london/chelsea/restaurant/claude-bosi-at-bibendum
Belmond Le Manoir aux Quat' Saisons,2019,51.71674,-1.09187,Great Milton,United Kingdom,French,$$$$,https://guide.michelin.com/gb/en/oxfordshire/great-milton/restaurant/belmond-le-manoir-aux-quat-saisons
Dinner by Heston Blumenthal,2019,51.50208,-0.16011,Hyde Park,United Kingdom,British,$$$$,https://guide.michelin.com/gb/en/greater-london/hyde-park/restaurant/dinner-by-heston-blumenthal
Hand and Flowers,2019,51.57031,-0.78113,Marlow,United Kingdom,British,$$$$,https://guide.michelin.com/gb/en/buckinghamshire/marlow/restaurant/hand-and-flowers
Greenhouse,2019,51.50769,-0.14926,Mayfair,United Kingdom,Innovative,$$$$,https://guide.michelin.com/gb/en/greater-london/mayfair/restaurant/greenhouse69393
Hélène Darroze at The Connaught,2019,51.5101,-0.1495701,Mayfair,United Kingdom,Modern,$$$$,https://guide.michelin.com/gb/en/greater-london/mayfair/restaurant/helene-darroze-at-the-connaught
Le Gavroche,2019,51.51127,-0.15517,Mayfair,United Kingdom,French,$$$$,https://guide.michelin.com/gb/en/greater-london/mayfair/restaurant/le-gavroche
Sketch (The Lecture Room & Library),2019,51.51287,-0.14136,Mayfair,United Kingdom,French,$$$$,https://guide.michelin.com/gb/en/greater-london/mayfair/restaurant/sketch-the-lecture-room-library
Umu,2019,51.5113,-0.14455,Mayfair,United Kingdom,Japanese,$$$$,https://guide.michelin.com/gb/en/greater-london/mayfair/restaurant/umu
CORE by Clare Smyth,2019,51.51261,-0.2030516,North Kensington,United Kingdom,British,$$$$,https://guide.michelin.com/gb/en/greater-london/north-kensington/restaurant/core-by-clare-smyth
Ledbury,2019,51.51674,-0.20007,North Kensington,United Kingdom,Modern,$$$$,https://guide.michelin.com/gb/en/greater-london/north-kensington/restaurant/ledbury
Restaurant Sat Bains,2019,52.92438,-1.1733198,Nottingham,United Kingdom,Innovative,$$$$,https://guide.michelin.com/gb/en/nottingham/nottingham/restaurant/restaurant-sat-bains
Restaurant Nathan Outlaw,2019,50.594086,-4.82854,Port Isaac,United Kingdom,Seafood,$$$$,https://guide.michelin.com/gb/en/cornwall/port-isaac/restaurant/restaurant-nathan-outlaw
Raby Hunt,2019,54.56647,-1.689258,Summerhouse,United Kingdom,Modern,$$$$,https://guide.michelin.com/gb/en/darlington/summerhouse/restaurant/raby-hunt
Acadia,2019,41.85904,-87.62562,Chicago,United States,Contemporary,$$$$,https://guide.michelin.com/us/en/illinois/chicago/restaurant/acadia
Oriole,2019,41.886196,-87.64513,Chicago,United States,Contemporary,$$$$,https://guide.michelin.com/us/en/illinois/chicago/restaurant/oriole
Smyth,2019,41.885,-87.660736,Chicago,United States,Contemporary,$$$$,https://guide.michelin.com/us/en/illinois/chicago/restaurant/smyth
n/naka,2019,34.02526,-118.41206,Los Angeles,United States,Contemporary,$$$$,https://guide.michelin.com/us/en/california/us-los-angeles/restaurant/n-naka
Providence,2019,34.083523,-118.33019,Los Angeles,United States,Seafood,$$$$,https://guide.michelin.com/us/en/california/us-los-angeles/restaurant/providence
Somni,2019,34.070095,-118.37649,Los Angeles,United States,Contemporary,$$$$,https://guide.michelin.com/us/en/california/us-los-angeles/restaurant/somni
Sushi Ginza Onodera,2019,34.08238,-118.37654,Los Angeles,United States,Japanese,$$$$,https://guide.michelin.com/us/en/california/us-los-angeles/restaurant/sushi-ginza-onodera559850
Urasawa,2019,34.067352,-118.40067,Los Angeles,United States,Japanese,$$$$,https://guide.michelin.com/us/en/california/us-los-angeles/restaurant/urasawa
Vespertine,2019,34.024204,-118.38166,Los Angeles,United States,Contemporary,$$$$,https://guide.michelin.com/us/en/california/us-los-angeles/restaurant/vespertine
Aquavit,2019,40.76078,-73.97214,New York,United States,Scandinavian,$$$$,https://guide.michelin.com/us/en/new-york-state/new-york/restaurant/aquavit
Aska,2019,40.71222,-73.96642,New York,United States,Scandinavian,$$$$,https://guide.michelin.com/us/en/new-york-state/new-york/restaurant/aska
Atera,2019,40.716797,-74.00565,New York,United States,Contemporary,$$$$,https://guide.michelin.com/us/en/new-york-state/new-york/restaurant/atera
Blanca,2019,40.70492,-73.93354,New York,United States,Contemporary,$$$$,https://guide.michelin.com/us/en/new-york-state/new-york/restaurant/blanca
Daniel,2019,40.7666,-73.96745,New York,United States,French,$$$$,https://guide.michelin.com/us/en/new-york-state/new-york/restaurant/daniel
Gabriel Kreuther,2019,40.75397,-73.982025,New York,United States,Contemporary,$$$$,https://guide.michelin.com/us/en/new-york-state/new-york/restaurant/gabriel-kreuther
Ichimura at Uch?,2019,40.721832,-73.99012,New York,United States,Japanese,$$$$,https://guide.michelin.com/us/en/new-york-state/new-york/restaurant/ichimura-at-uchu
Jean-Georges,2019,40.76907,-73.98155,New York,United States,Contemporary,$$$$,https://guide.michelin.com/us/en/new-york-state/new-york/restaurant/jean-georges
Jungsik,2019,40.718685,-74.00911,New York,United States,Korean,$$$$,https://guide.michelin.com/us/en/new-york-state/new-york/restaurant/jungsik
Ko,2019,40.72909,-73.98448,New York,United States,Contemporary,$$$$,https://guide.michelin.com/us/en/new-york-state/new-york/restaurant/ko
L'Atelier de Joël Robuchon,2019,40.742905,-74.00769,New York,United States,French,$$$$,https://guide.michelin.com/us/en/new-york-state/new-york/restaurant/l-atelier-de-joel-robuchon562505
Marea,2019,40.76749,-73.98114,New York,United States,Seafood,$$$$,https://guide.michelin.com/us/en/new-york-state/new-york/restaurant/marea
Sushi Ginza Onodera,2019,40.752396,-73.981575,New York,United States,Japanese,$$$$,https://guide.michelin.com/us/en/new-york-state/new-york/restaurant/sushi-ginza-onodera
The Modern,2019,40.76106,-73.97628,New York,United States,Contemporary,$$$$,https://guide.michelin.com/us/en/new-york-state/new-york/restaurant/the-modern
Acquerello,2019,37.79167,-122.42131,San Francisco,United States,Italian,$$$$,https://guide.michelin.com/us/en/california/san-francisco/restaurant/acquerello
Baumé,2019,37.4285,-122.14272,San Francisco,United States,Contemporary,$$$$,https://guide.michelin.com/us/en/california/south-san-francisco/restaurant/baume
Californios,2019,37.75555,-122.417145,San Francisco,United States,Mexican,$$$$,https://guide.michelin.com/us/en/california/san-francisco/restaurant/californios
Campton Place,2019,37.78923,-122.40665,San Francisco,United States,Indian,$$$$,https://guide.michelin.com/us/en/california/san-francisco/restaurant/campton-place
Coi,2019,37.79812,-122.40331,San Francisco,United States,Contemporary,$$$$,https://guide.michelin.com/us/en/california/san-francisco/restaurant/coi
Commis,2019,37.82476,-122.25505,San Francisco,United States,Contemporary,$$$$,https://guide.michelin.com/us/en/california/san-francisco/restaurant/commis
Lazy Bear,2019,37.760204,-122.41969,San Francisco,United States,Contemporary,$$$$,https://guide.michelin.com/us/en/california/san-francisco/restaurant/lazy-bear
Saison,2019,37.76327,-122.41543,San Francisco,United States,American,$$$$,https://guide.michelin.com/us/en/california/san-francisco/restaurant/saison
minibar,2019,38.896294,-77.02386,Washington,United States,Contemporary,$$$$,https://guide.michelin.com/us/en/washington/washington-dc/restaurant/minibar
Pineapple and Pearls,2019,38.880707,-76.99514,Washington,United States,Contemporary,$$$$,https://guide.michelin.com/us/en/washington/washington-dc/restaurant/pineapple-and-pearls
